{"fullgameschedule": {"lastUpdatedOn": "2018-12-11 9:52:33 AM", "gameentry": [{"id": "45957", "week": "1", "scheduleStatus": "Normal", "originalDate": null, "originalTime": null, "delayedOrPostponedReason": null, "date": "2018-09-09", "time": "8:20PM", "awayTeam": {"ID": "60", "City": "Chicago", "Name": "Bears", "Abbreviation": "CHI"}, "homeTeam": {"ID": "62", "City": "Green Bay", "Name": "Packers", "Abbreviation": "GB"}, "location": "Lambeau Field"}, {"id": "45968", "week": "2", "scheduleStatus": "Normal", "originalDate": null, "originalTime": null, "delayedOrPostponedReason": null, "date": "2018-09-16", "time": "1:00PM", "awayTeam": {"ID": "63", "City": "Minnesota", "Name": "Vikings", "Abbreviation": "MIN"}, "homeTeam": {"ID": "62", "City": "Green Bay", "Name": "Packers", "Abbreviation": "GB"}, "location": "Lambeau Field"}, {"id": "45980", "week": "3", "scheduleStatus": "Normal", "originalDate": null, "originalTime": null, "delayedOrPostponedReason": null, "date": "2018-09-23", "time": "1:00PM", "awayTeam": {"ID": "62", "City": "Green Bay", "Name": "Packers", "Abbreviation": "GB"}, "homeTeam": {"ID": "55", "City": "Washington", "Name": "Redskins", "Abbreviation": "WAS"}, "location": "FedEx Field"}, {"id": "45993", "week": "4", "scheduleStatus": "Normal", "originalDate": null, "originalTime": null, "delayedOrPostponedReason": null, "date": "2018-09-30", "time": "1:00PM", "awayTeam": {"ID": "48", "City": "Buffalo", "Name": "Bills", "Abbreviation": "BUF"}, "homeTeam": {"ID": "62", "City": "Green Bay", "Name": "Packers", "Abbreviation": "GB"}, "location": "Lambeau Field"}, {"id": "46011", "week": "5", "scheduleStatus": "Normal", "originalDate": null, "originalTime": null, "delayedOrPostponedReason": null, "date": "2018-10-07", "time": "1:00PM", "awayTeam": {"ID": "62", "City": "Green Bay", "Name": "Packers", "Abbreviation": "GB"}, "homeTeam": {"ID": "61", "City": "Detroit", "Name": "Lions", "Abbreviation": "DET"}, "location": "Ford Field"}, {"id": "46036", "week": "6", "scheduleStatus": "Normal", "originalDate": null, "originalTime": null, "delayedOrPostponedReason": null, "date": "2018-10-15", "time": "8:15PM", "awayTeam": {"ID": "78", "City": "San Francisco", "Name": "49ers", "Abbreviation": "SF"}, "homeTeam": {"ID": "62", "City": "Green Bay", "Name": "Packers", "Abbreviation": "GB"}, "location": "Lambeau Field"}, {"id": "46061", "week": "8", "scheduleStatus": "Normal", "originalDate": null, "originalTime": null, "delayedOrPostponedReason": null, "date": "2018-10-28", "time": "4:25PM", "awayTeam": {"ID": "62", "City": "Green Bay", "Name": "Packers", "Abbreviation": "GB"}, "homeTeam": {"ID": "77", "City": "Los Angeles", "Name": "Rams", "Abbreviation": "LA"}, "location": "Los Angeles Memorial Coliseum"}, {"id": "46076", "week": "9", "scheduleStatus": "Normal", "originalDate": null, "originalTime": null, "delayedOrPostponedReason": null, "date": "2018-11-04", "time": "8:20PM", "awayTeam": {"ID": "62", "City": "Green Bay", "Name": "Packers", "Abbreviation": "GB"}, "homeTeam": {"ID": "50", "City": "New England", "Name": "Patriots", "Abbreviation": "NE"}, "location": "Gillette Stadium"}, {"id": "46086", "week": "10", "scheduleStatus": "Normal", "originalDate": null, "originalTime": null, "delayedOrPostponedReason": null, "date": "2018-11-11", "time": "4:25PM", "awayTeam": {"ID": "49", "City": "Miami", "Name": "Dolphins", "Abbreviation": "MIA"}, "homeTeam": {"ID": "62", "City": "Green Bay", "Name": "Packers", "Abbreviation": "GB"}, "location": "Lambeau Field"}, {"id": "46092", "week": "11", "scheduleStatus": "Normal", "originalDate": null, "originalTime": null, "delayedOrPostponedReason": null, "date": "2018-11-15", "time": "8:20PM", "awayTeam": {"ID": "62", "City": "Green Bay", "Name": "Packers", "Abbreviation": "GB"}, "homeTeam": {"ID": "79", "City": "Seattle", "Name": "Seahawks", "Abbreviation": "SEA"}, "location": "CenturyLink Field"}, {"id": "46118", "week": "12", "scheduleStatus": "Normal", "originalDate": null, "originalTime": null, "delayedOrPostponedReason": null, "date": "2018-11-25", "time": "8:20PM", "awayTeam": {"ID": "62", "City": "Green Bay", "Name": "Packers", "Abbreviation": "GB"}, "homeTeam": {"ID": "63", "City": "Minnesota", "Name": "Vikings", "Abbreviation": "MIN"}, "location": "US Bank Stadium"}, {"id": "46121", "week": "13", "scheduleStatus": "Normal", "originalDate": null, "originalTime": null, "delayedOrPostponedReason": null, "date": "2018-12-02", "time": "1:00PM", "awayTeam": {"ID": "76", "City": "Arizona", "Name": "Cardinals", "Abbreviation": "ARI"}, "homeTeam": {"ID": "62", "City": "Green Bay", "Name": "Packers", "Abbreviation": "GB"}, "location": "Lambeau Field"}, {"id": "46137", "week": "14", "scheduleStatus": "Normal", "originalDate": null, "originalTime": null, "delayedOrPostponedReason": null, "date": "2018-12-09", "time": "1:00PM", "awayTeam": {"ID": "68", "City": "Atlanta", "Name": "Falcons", "Abbreviation": "ATL"}, "homeTeam": {"ID": "62", "City": "Green Bay", "Name": "Packers", "Abbreviation": "GB"}, "location": "Lambeau Field"}, {"id": "46162", "week": "15", "scheduleStatus": "Normal", "originalDate": null, "originalTime": null, "delayedOrPostponedReason": null, "date": "2018-12-16", "time": "1:00PM", "awayTeam": {"ID": "62", "City": "Green Bay", "Name": "Packers", "Abbreviation": "GB"}, "homeTeam": {"ID": "60", "City": "Chicago", "Name": "Bears", "Abbreviation": "CHI"}, "location": "Soldier Field"}, {"id": "46171", "week": "16", "scheduleStatus": "Normal", "originalDate": null, "originalTime": null, "delayedOrPostponedReason": null, "date": "2018-12-23", "time": "1:00PM", "awayTeam": {"ID": "62", "City": "Green Bay", "Name": "Packers", "Abbreviation": "GB"}, "homeTeam": {"ID": "51", "City": "New York", "Name": "Jets", "Abbreviation": "NYJ"}, "location": "MetLife Stadium"}, {"id": "46190", "week": "17", "scheduleStatus": "Normal", "originalDate": null, "originalTime": null, "delayedOrPostponedReason": null, "date": "2018-12-30", "time": "1:00PM", "awayTeam": {"ID": "61", "City": "Detroit", "Name": "Lions", "Abbreviation": "DET"}, "homeTeam": {"ID": "62", "City": "Green Bay", "Name": "Packers", "Abbreviation": "GB"}, "location": "Lambeau Field"}]}}