{"fullgameschedule": {"lastUpdatedOn": "2018-12-12 1:43:47 PM", "gameentry": [{"id": "45953", "week": "1", "scheduleStatus": "Normal", "originalDate": null, "originalTime": null, "delayedOrPostponedReason": null, "date": "2018-09-09", "time": "4:05PM", "awayTeam": {"ID": "73", "City": "Kansas City", "Name": "Chiefs", "Abbreviation": "KC"}, "homeTeam": {"ID": "75", "City": "Los Angeles", "Name": "Chargers", "Abbreviation": "LAC"}, "location": "StubHub Center"}, {"id": "45965", "week": "2", "scheduleStatus": "Normal", "originalDate": null, "originalTime": null, "delayedOrPostponedReason": null, "date": "2018-09-16", "time": "1:00PM", "awayTeam": {"ID": "73", "City": "Kansas City", "Name": "Chiefs", "Abbreviation": "KC"}, "homeTeam": {"ID": "59", "City": "Pittsburgh", "Name": "Steelers", "Abbreviation": "PIT"}, "location": "Heinz Field"}, {"id": "45985", "week": "3", "scheduleStatus": "Normal", "originalDate": null, "originalTime": null, "delayedOrPostponedReason": null, "date": "2018-09-23", "time": "1:00PM", "awayTeam": {"ID": "78", "City": "San Francisco", "Name": "49ers", "Abbreviation": "SF"}, "homeTeam": {"ID": "73", "City": "Kansas City", "Name": "Chiefs", "Abbreviation": "KC"}, "location": "Arrowhead Stadium"}, {"id": "46006", "week": "4", "scheduleStatus": "Normal", "originalDate": null, "originalTime": null, "delayedOrPostponedReason": null, "date": "2018-10-01", "time": "8:15PM", "awayTeam": {"ID": "73", "City": "Kansas City", "Name": "Chiefs", "Abbreviation": "KC"}, "homeTeam": {"ID": "72", "City": "Denver", "Name": "Broncos", "Abbreviation": "DEN"}, "location": "Sports Authority Field at Mile High"}, {"id": "46012", "week": "5", "scheduleStatus": "Normal", "originalDate": null, "originalTime": null, "delayedOrPostponedReason": null, "date": "2018-10-07", "time": "1:00PM", "awayTeam": {"ID": "66", "City": "Jacksonville", "Name": "Jaguars", "Abbreviation": "JAX"}, "homeTeam": {"ID": "73", "City": "Kansas City", "Name": "Chiefs", "Abbreviation": "KC"}, "location": "Arrowhead Stadium"}, {"id": "46035", "week": "6", "scheduleStatus": "Normal", "originalDate": null, "originalTime": null, "delayedOrPostponedReason": null, "date": "2018-10-14", "time": "8:20PM", "awayTeam": {"ID": "73", "City": "Kansas City", "Name": "Chiefs", "Abbreviation": "KC"}, "homeTeam": {"ID": "50", "City": "New England", "Name": "Patriots", "Abbreviation": "NE"}, "location": "Gillette Stadium"}, {"id": "46041", "week": "7", "scheduleStatus": "Normal", "originalDate": null, "originalTime": null, "delayedOrPostponedReason": null, "date": "2018-10-21", "time": "8:20PM", "awayTeam": {"ID": "57", "City": "Cincinnati", "Name": "Bengals", "Abbreviation": "CIN"}, "homeTeam": {"ID": "73", "City": "Kansas City", "Name": "Chiefs", "Abbreviation": "KC"}, "location": "Arrowhead Stadium"}, {"id": "46055", "week": "8", "scheduleStatus": "Normal", "originalDate": null, "originalTime": null, "delayedOrPostponedReason": null, "date": "2018-10-28", "time": "1:00PM", "awayTeam": {"ID": "72", "City": "Denver", "Name": "Broncos", "Abbreviation": "DEN"}, "homeTeam": {"ID": "73", "City": "Kansas City", "Name": "Chiefs", "Abbreviation": "KC"}, "location": "Arrowhead Stadium"}, {"id": "46070", "week": "9", "scheduleStatus": "Normal", "originalDate": null, "originalTime": null, "delayedOrPostponedReason": null, "date": "2018-11-04", "time": "1:00PM", "awayTeam": {"ID": "73", "City": "Kansas City", "Name": "Chiefs", "Abbreviation": "KC"}, "homeTeam": {"ID": "58", "City": "Cleveland", "Name": "Browns", "Abbreviation": "CLE"}, "location": "FirstEnergy Stadium"}, {"id": "46079", "week": "10", "scheduleStatus": "Normal", "originalDate": null, "originalTime": null, "delayedOrPostponedReason": null, "date": "2018-11-11", "time": "1:00PM", "awayTeam": {"ID": "76", "City": "Arizona", "Name": "Cardinals", "Abbreviation": "ARI"}, "homeTeam": {"ID": "73", "City": "Kansas City", "Name": "Chiefs", "Abbreviation": "KC"}, "location": "Arrowhead Stadium"}, {"id": "46104", "week": "11", "scheduleStatus": "Normal", "originalDate": null, "originalTime": null, "delayedOrPostponedReason": null, "date": "2018-11-19", "time": "8:15PM", "awayTeam": {"ID": "73", "City": "Kansas City", "Name": "Chiefs", "Abbreviation": "KC"}, "homeTeam": {"ID": "77", "City": "Los Angeles", "Name": "Rams", "Abbreviation": "LA"}, "location": "Los Angeles Memorial Coliseum"}, {"id": "46131", "week": "13", "scheduleStatus": "Normal", "originalDate": null, "originalTime": null, "delayedOrPostponedReason": null, "date": "2018-12-02", "time": "4:05PM", "awayTeam": {"ID": "73", "City": "Kansas City", "Name": "Chiefs", "Abbreviation": "KC"}, "homeTeam": {"ID": "74", "City": "Oakland", "Name": "Raiders", "Abbreviation": "OAK"}, "location": "Oakland-Alameda County Coliseum"}, {"id": "46138", "week": "14", "scheduleStatus": "Normal", "originalDate": null, "originalTime": null, "delayedOrPostponedReason": null, "date": "2018-12-09", "time": "1:00PM", "awayTeam": {"ID": "56", "City": "Baltimore", "Name": "Ravens", "Abbreviation": "BAL"}, "homeTeam": {"ID": "73", "City": "Kansas City", "Name": "Chiefs", "Abbreviation": "KC"}, "location": "Arrowhead Stadium"}, {"id": "46152", "week": "15", "scheduleStatus": "Normal", "originalDate": null, "originalTime": null, "delayedOrPostponedReason": null, "date": "2018-12-13", "time": "8:20PM", "awayTeam": {"ID": "75", "City": "Los Angeles", "Name": "Chargers", "Abbreviation": "LAC"}, "homeTeam": {"ID": "73", "City": "Kansas City", "Name": "Chiefs", "Abbreviation": "KC"}, "location": "Arrowhead Stadium"}, {"id": "46182", "week": "16", "scheduleStatus": "Normal", "originalDate": null, "originalTime": null, "delayedOrPostponedReason": null, "date": "2018-12-23", "time": "8:20PM", "awayTeam": {"ID": "73", "City": "Kansas City", "Name": "Chiefs", "Abbreviation": "KC"}, "homeTeam": {"ID": "79", "City": "Seattle", "Name": "Seahawks", "Abbreviation": "SEA"}, "location": "CenturyLink Field"}, {"id": "46195", "week": "17", "scheduleStatus": "Normal", "originalDate": null, "originalTime": null, "delayedOrPostponedReason": null, "date": "2018-12-30", "time": "1:00PM", "awayTeam": {"ID": "74", "City": "Oakland", "Name": "Raiders", "Abbreviation": "OAK"}, "homeTeam": {"ID": "73", "City": "Kansas City", "Name": "Chiefs", "Abbreviation": "KC"}, "location": "Arrowhead Stadium"}]}}